[
   {
      "name":"Baho Vet Clinic",
      "image":"https://lh5.googleusercontent.com/p/AF1QipMJyft1aVl0UX6Knd0sfBI3Aw2X_YBtR3M_zWnn=w408-h306-k-no",
      "latitude":"16.858766836780706",
      "longitude":"96.08625979703285",
      "state":"ရန်ကုန်",
      "township":"လှိုင်သာယာ",
      "doctors":"",
      "phone":"09793121048",
      "address":"No A-29, Thazin, 1st St, FMI City, လှိုင်သာယာမြို့နယ်၊ ရန်ကုန်",
      "remark":"",
      "rating":""
   },
   {
      "name":"Forever Veterinary Clinic (ထာဝရဆေးခန်း)",
      "image":"https://lh5.googleusercontent.com/p/AF1QipOfs_926wJdD1bnd4-0clA-SAFsgDqB1QYBi50d=w426-h240-k-no",
      "latitude":"16.837226107307163",
      "longitude":"96.26812401617553",
      "state":"ရန်ကုန်",
      "township":"ဒဂုံဆိပ်ကမ်း",
      "doctors":"",
      "phone":"09420098152",
      "address":"Building 26, Room 001 3St, B-Block, Yuzana Garden City, Dagon Seik Kan Tsp, Yangon",
      "remark":"Thursday to Tuesday (9AM - 5PM)\nWednesday, Closed",
      "rating":""
   },
   {
      "name":"Forever Veterinary Clinic (ထာဝရဆေးခန်း)",
      "image":"",
      "latitude":"16.843630796258196",
      "longitude":"96.11694223688097",
      "state":"ရန်ကုန်",
      "township":"လှိုင်",
      "doctors":"Dr.Saw Thet Htun, Dr.Myo Khaing",
      "phone":"095402360, 0931074452, 09794794544",
      "address":"အမှတ် B-2, R-5, ဘုရင့်နောင်လမ်းမ၊ ဘူတာရုံမှတ်တိုင်နား၊ လှိုင်မြို့နယ်။",
      "remark":"Mon to Fri 9am-12pm, 2pm-4pm, 6pm-9pm\nSat 9am-12pm, 2pm-4pm\nSun/Public Holidays 9am-1pm\n\nဆေးခန်းပိတ်ချိန်တွင်လည်း ဖုန်းခေါ်ပြီး ဆေးခန်းလာပြနိုင်သည်။ အချိန်ပိုခတော့ ပေးရသည်။ အိမ်သို့ကြွသည်။",
      "rating":""
   },
   {
      "name":"Forever Veterinary Clinic (ထာဝရဆေးခန်း)",
      "image":"",
      "latitude":"16.879892762511496",
      "longitude":"96.1730968121525",
      "state":"ရန်ကုန်",
      "township":"မြောက်ဒဂုံ",
      "doctors":"",
      "phone":"09421011044",
      "address":"Maharmyaing Housing, Yangon",
      "remark":"Mon to Fri 9am-12pm, 2pm-4pm, 6pm-9pm\nSat 9am-12pm, 2pm-4pm\nSun/Public Holidays 9am-1pm\n\nဆေးခန်းပိတ်ချိန်တွင်လည်း ဖုန်းခေါ်ပြီး ဆေးခန်းလာပြနိုင်သည်။ အချိန်ပိုခတော့ ပေးရသည်။ အိမ်သို့ကြွသည်။",
      "rating":""
   },
   {
      "name":"Forever Veterinary Clinic (ထာဝရဆေးခန်း)",
      "image":"",
      "latitude":"16.890855620516653",
      "longitude":"96.15289684511446",
      "state":"ရန်ကုန်",
      "township":"",
      "doctors":"",
      "phone":"095085253",
      "address":"Thudamar Road, Yangon",
      "remark":"Mon to Sunday (9:30AM - 7PM)\n\nဆေးခန်းပိတ်ချိန်တွင်လည်း ဖုန်းခေါ်ပြီး ဆေးခန်းလာပြနိုင်သည်။ အချိန်ပိုခတော့ ပေးရသည်။ အိမ်သို့ကြွသည်။",
      "rating":""
   },
   {
      "name":"Forever Veterinary Clinic (ထာဝရဆေးခန်း)",
      "image":"",
      "latitude":"16.80635588189359",
      "longitude":"96.2171808564839",
      "state":"ရန်ကုန်",
      "township":"",
      "doctors":"",
      "phone":"",
      "address":"Shukhinthar Rd, ရန်ကုန်",
      "remark":"Mon to Fri 9am-12pm, 2pm-4pm, 6pm-9pm\nSat 9am-12pm, 2pm-4pm\nSun/Public Holidays 9am-1pm\n\nဆေးခန်းပိတ်ချိန်တွင်လည်း ဖုန်းခေါ်ပြီး ဆေးခန်းလာပြနိုင်သည်။ အချိန်ပိုခတော့ ပေးရသည်။ အိမ်သို့ကြွသည်။",
      "rating":""
   },
   {
      "name":"ကောင်းဆေးခန်း",
      "image":"",
      "latitude":"",
      "longitude":"",
      "state":"ရန်ကုန်",
      "township":"လှိုင်သာယာ",
      "doctors":"Dr.U Than Win",
      "phone":"095004866",
      "address":"နဝဒေးအိမ်ယာ Shop house, လှိုင်သာယာ (ကျန်စစ်သားအိမ်ယာနဲ့ နီးတဲ့အခြမ်း၊ နယူးအာရှ ဖုန်းဆိုင်ဘေးလမ်းကဝင်၊ ဘယ်ဘက်ချိုး၊ အနီးရှိကုန်စုံဆိုင်ကို မေးကြည့်နိုင်။ ၅ လမ်းထိပ်ဘက်မှာလဲရှိ၊ ပီမိုးနင်းလမ်းအနီးတွင် မေးကြည့်နိုင်။",
      "remark":"",
      "rating":""
   },
   {
      "name":"အောင်ဆေးခန်း",
      "image":"",
      "latitude":"",
      "longitude":"",
      "state":"ရန်ကုန်",
      "township":"",
      "doctors":"Dr.Kyaw Soe (BVS) Veterinary Surgeon (Tasama-0126)",
      "phone":"095117870",
      "address":"အမှတ် ၃၃၊ မိုးကောင်းလမ်း (ဘေက်ထော်ဘူတာရုံလမ်းထောင့်) ဘောက်ထော်၊ မာကျူရီလက်ဖက်ရည်ဆိုင်နှင့် သပြေရိပ်လက်ဖက်ရည်ဆိုင်ကြား၊ မှတ်တမ်းရုံးနှင့် မျက်နှာချင်းဆိုင်)",
      "remark":"မနက် 8:30-11:00, ညနေ 4:00-7:30\n(အင်္ဂါနေ့မနက်ပိုင်းပိတ်)",
      "rating":""
   },
   {
      "name":"စေတနာဆေးခန်း",
      "image":"",
      "latitude":"",
      "longitude":"",
      "state":"ရန်ကုန်",
      "township":"တောင်ဥက္ကလာပ",
      "doctors":"Dr.Lae Lae Khing (B.V.S) (Tasama-3050)",
      "phone":"01560464",
      "address":"သုမင်္ဂလာလမ်း၊ ဇာလီတောင်အိမ်ယာ၊ တောင်ဥက္ကလာပမြို့နယ်။",
      "remark":"",
      "rating":""
   },
   {
      "name":"Royal Asia Clinic",
      "image":"",
      "latitude":"16.86649051930304",
      "longitude":"96.17878341565884",
      "state":"ရန်ကုန်",
      "township":"တောင်ဥက္ကလာပ",
      "doctors":"Dr.Thein Tun Aung",
      "phone":"018500715, 09421066887",
      "address":"အမှတ် ၂၉၆(က)၊ သံသုမာလမ်း၊ တောင်ဥက္ကလာပမြို့နယ်။",
      "remark":"8:00am to 2:00pm",
      "rating":""
   },
   {
      "name":"ကြာညိုပန်းဆေးခန်း",
      "image":"",
      "latitude":"",
      "longitude":"",
      "state":"ရန်ကုန်",
      "township":"တောင်ဥက္ကလာပ",
      "doctors":"Dr.Daw Sandar Aung, Dr.Su Lae Ye Htun",
      "phone":"01572863",
      "address":"တောင်ဥက္ကလာစာတိုက်အနီး (တောင်ဥက္ကလာ ရဲစခန်းရှေ့)",
      "remark":"အိမ်သို့မကြွနိုင်ပါ။",
      "rating":""
   },
   {
      "name":"ဝေဇယန္တာဆေးခန်း",
      "image":"",
      "latitude":"",
      "longitude":"",
      "state":"ရန်ကုန်",
      "township":"တောင်ဥက္ကလာပ",
      "doctors":"Dr.Kyaw Lwin",
      "phone":"",
      "address":"ပါရမီလမ်းနှင့် ဝေဇယန္တာလမ်းထောင့်အနီး၊ ဝေဇယန္တာလမ်းမကြီးပေါ်၊ တောင်ဥက္ကလာပမြို့နယ်။",
      "remark":"",
      "rating":""
   },
   {
      "name":"မြိတ္တဆေးခန်း",
      "image":"",
      "latitude":"",
      "longitude":"",
      "state":"ရန်ကုန်",
      "township":"",
      "doctors":"",
      "phone":"09450007088, 095078360",
      "address":"အမှတ် ၁၄၂၊ အခန်း ၃၊ သံသုမာလမ်းမကြီး၊ သုဝဏ္ဏ(သုဝဏ္ဏဈေးအနီး)",
      "remark":"",
      "rating":""
   },
   {
      "name":"Myat Clinic",
      "image":"",
      "latitude":"",
      "longitude":"",
      "state":"ရန်ကုန်",
      "township":"",
      "doctors":"",
      "phone":"0973138523",
      "address":"မြိုင်ဟေဝန်အိမ်ယာ၊ Junction 8 နောက်ကျော မိန်းလမ်းမကြီးပေါ် ပေါက်စေတီရှေ့",
      "remark":"အိမ်ကြွပါသည်။",
      "rating":""
   },
   {
      "name":"ဇော်ဆေးခန်း",
      "image":"",
      "latitude":"",
      "longitude":"",
      "state":"ရန်ကုန်",
      "township":"တာမွေ",
      "doctors":"ဒေါက်တာကျော်နိုင်ဦး (B.V.S Dip in French) (Tasama-1037), ဒေါက်တာနီလာကျော် (B.V.S) (Tasama-1053)",
      "phone":"095015586",
      "address":"အမှတ် ၃၅၅၊ ဗညားဒလလမ်း၊ ကျောက်မြောင်း၊ တာမွေ။",
      "remark":"",
      "rating":""
   },
   {
      "name":"ဒေါက်တာတင်တင်ခိုင်",
      "image":"",
      "latitude":"",
      "longitude":"",
      "state":"ရန်ကုန်",
      "township":"ကမာရွတ်",
      "doctors":"ဒေါက်တာတင်တင်ခိုင်",
      "phone":"095133712",
      "address":"လှည်းတန်း၊ ပေ ၅၀ လမ်း။",
      "remark":"အိမ်သို့ကြွသည်။",
      "rating":""
   },
   {
      "name":"မေလိခဆေးခန်း",
      "image":"",
      "latitude":"",
      "longitude":"",
      "state":"ရန်ကုန်",
      "township":"",
      "doctors":"ဒေါက်တာတင်မျိုးနိုင်",
      "phone":"01650083",
      "address":"ဝါယာလက် ၁ လမ်း၊ ကမ္ဘာအေးဘုရားအနီး၊ Myanmar VES ရှေ့။",
      "remark":"မနက် ၉း၀၀ - ည ၈း၀၀",
      "rating":""
   },
   {
      "name":"တော်ဝင်ဆေးခန်း",
      "image":"",
      "latitude":"",
      "longitude":"",
      "state":"ရန်ကုန်",
      "township":"ရန်ကင်း",
      "doctors":"ဒေါက်တာမြတ်ဦး",
      "phone":"098616037",
      "address":"ရွှေဂုံတိုင်အနီး၊ ခြောက်ထပ်ကြီးမှတ်တိုင်နှင့် ဗန်ဒါပင်မှတ်တိုင်ကြား",
      "remark":"တနင်္လာ - သောကြာ (မနက် ၈း၀၀ - ၁၁း၀၀၊ ညနေ ၄း၀၀ - ၈း၀၀)\nတနင်္ဂနွေ (ညနေ ၄း၀၀ - ၈း၀၀)",
      "rating":""
   },
   {
      "name":"မေ ဆေးခန်း",
      "image":"",
      "latitude":"",
      "longitude":"",
      "state":"ရန်ကုန်",
      "township":"လှိုင်",
      "doctors":"ဒေါက်တာစိုးမင်းလင်း",
      "phone":"0973133112",
      "address":"တိုက် ၁၇, အခန်း ၂, မာတလိလမ်း၊ လှိုင်မြင့်မိုရ်အိမ်ယာ၊ ကံလမ်း၊ လှိုင်မြို့နယ်။",
      "remark":"အိမ်သို့ကြွသည်။",
      "rating":""
   },
   {
      "name":"ဒေါက်တာကျော်ဇေယျ",
      "image":"",
      "latitude":"",
      "longitude":"",
      "state":"ရန်ကုန်",
      "township":"မြောက်ဥက္ကလာပ",
      "doctors":"ဒေါက်တာကျော်ဇေယျ",
      "phone":"095192568",
      "address":"နီလာ ၁ လမ်းထောင့်၊ ခေမာသီ၊ မြောက်ဥက္ကလာပမြို့နယ်။",
      "remark":"မနက်ပိုင်းသာ ထိုင်သည်။",
      "rating":""
   },
   {
      "name":"ထွန်းဆေးခန်း",
      "image":"",
      "latitude":"",
      "longitude":"",
      "state":"ရန်ကုန်",
      "township":"မြောက်ဥက္ကလာပ",
      "doctors":"ဒေါက်တာဉာဏ်ထွန်း",
      "phone":"",
      "address":"မေဓါဝီမှတ်တိုင်အနီး၊ မေဓါဝီလမ်းဆုံ၊ မြောက်ဥက္ကလာပမြို့နယ်။",
      "remark":"",
      "rating":""
   },
   {
      "name":"ဂါးဖီးလ်ဆေးခန်း",
      "image":"",
      "latitude":"",
      "longitude":"",
      "state":"ရန်ကုန်",
      "township":"မြောက်ဥက္ကလာပမ",
      "doctors":"",
      "phone":"",
      "address":"ဧရာလမ်း၊ မြောက်ဥက္ကလာပမြို့နယ်",
      "remark":"",
      "rating":""
   },
   {
      "name":"ခရမ်းပြာဆေးခန်း",
      "image":"",
      "latitude":"",
      "longitude":"",
      "state":"ရန်ကုန်",
      "township":"မြောက်ဒဂုံ",
      "doctors":"ဒေါက်တာသင်းသင်းမင်း",
      "phone":"0973073167",
      "address":"ပင်လုံလမ်း၊ မြောက်ဒဂုံ",
      "remark":"အိမ်သို့ကြွသည်။",
      "rating":""
   },
   {
      "name":"ကောင်းကျော်ကြား",
      "image":"",
      "latitude":"",
      "longitude":"",
      "state":"ရန်ကုန်",
      "township":"ကြည့်မြင်တိုင်",
      "doctors":"ဒေါက်တာချိုလွင်",
      "phone":"01510545",
      "address":"လိပ်စာအတိအကျမသိ၊ ကျောင်းကြီးလမ်း၊ ကြည့်မြင်တိုင်ညဈေးအနီး",
      "remark":"အိမ်ကိုလည်း လိုက်ကြည့်ပေးပါသည်။",
      "rating":""
   },
   {
      "name":"ပိုင်ဖြိုးဆေးခန်း",
      "image":"",
      "latitude":"",
      "longitude":"",
      "state":"ရန်ကုန်",
      "township":"",
      "doctors":"ဒေါက်တာမြင့်ဝင်း",
      "phone":"095186391",
      "address":"မြိုင်ဟေဝန်အိမ်ယာ၊ ရှစ်မိုင်",
      "remark":"",
      "rating":""
   },
   {
      "name":"ဒေါက်တာအေးဝင်း",
      "image":"",
      "latitude":"",
      "longitude":"",
      "state":"ရန်ကုန်",
      "township":"",
      "doctors":"ဒေါက်တာအေးဝင်း",
      "phone":"095133208",
      "address":"ရေကျော်ရွှေဘုန်းပွင့်ဘုရားအနီး၊ သဇင်လမ်း။",
      "remark":"",
      "rating":""
   },
   {
      "name":"ဒေါက်တာသန့်စင်",
      "image":"",
      "latitude":"",
      "longitude":"",
      "state":"ရန်ကုန်",
      "township":"",
      "doctors":"ဒေါက်တာသန့်စင်",
      "phone":"095196106",
      "address":"၈၇ လမ်း၊ ဒေါ်သိန်းတင်ဘက်မှ ဝင်လျှင် ပိုနီး။",
      "remark":"အိမ်သို့ကြွသည်။\nမနက် ၉ နာရီ မှ ၁၁ နာရီထိ - ညနေ ၅ နာရီ မှ ၈ နာရီအထိ\nတနင်္ဂနွေပိတ်သည်။",
      "rating":""
   },
   {
      "name":"ဒေါက်တာသန်းထိုက်",
      "image":"",
      "latitude":"",
      "longitude":"",
      "state":"ရန်ကုန်",
      "township":"သာကေတ",
      "doctors":"ဒေါက်တာသန်းထိုက်",
      "phone":"095106551",
      "address":"သာကေတ ရုပ်ရှင်ရုံအနီး",
      "remark":"အိမ်သို့ကြွသည်။",
      "rating":""
   },
   {
      "name":"ဒေါက်တာမင်းထွဋ်",
      "image":"",
      "latitude":"",
      "longitude":"",
      "state":"ရန်ကုန်",
      "township":"",
      "doctors":"ဒေါက်တာမင်းထွဋ်",
      "phone":"0943134702",
      "address":"လိပ်စာမသိ",
      "remark":"အိမ်သို့ကြွသည်။",
      "rating":""
   },
   {
      "name":"မေဇွန်ဆေးခန်း",
      "image":"",
      "latitude":"",
      "longitude":"",
      "state":"မန္တလေး",
      "township":"",
      "doctors":"",
      "phone":"095169260",
      "address":"လမ်း ၈၀ နဲ့ ၈၁ လမ်းကြား။ ၃၂ လမ်း။ ဓါတ်ဆီဆိုင်ရှိတဲ့လမ်းပါ။",
      "remark":"အိမ်ကြွပါသည်။",
      "rating":""
   }
]
