{
   "data":[
      {
         "name":"Baho Vet Clinic",
         "image":"https://lh5.googleusercontent.com/p/AF1QipMJyft1aVl0UX6Knd0sfBI3Aw2X_YBtR3M_zWnn=w408-h306-k-no",
         "latitude":"16.858766836780706",
         "longitude":"96.08625979703285",
         "state":"ရန်ကုန်",
         "township":"လှိုင်သာယာ",
         "doctors":"",
         "phone":"09793121048",
         "address":"No A-29, Thazin, 1st St, FMI City, လှိုင်သာယာမြို့နယ်၊ ရန်ကုန်",
         "remark":"",
         "rating":""
      },
      {
         "name":"Dr.Pet - Pet Health Care Center",
         "image":"",
         "latitude":"16.835363175746465",
         "longitude":"96.11531952402383",
         "state":"ရန်ကုန်",
         "township":"လှိုင်",
         "doctors":"",
         "phone":"09959393946",
         "address":"No.4 ,Yadanar Mon (6) Street, Aye Yeik Mon Main Rd, 11051",
         "remark":"",
         "rating":""
      },
      {
         "name":"Forever Veterinary Clinic (ထာဝရဆေးခန်း)",
         "image":"https://lh5.googleusercontent.com/p/AF1QipOfs_926wJdD1bnd4-0clA-SAFsgDqB1QYBi50d=w426-h240-k-no",
         "latitude":"16.837226107307163",
         "longitude":"96.26812401617553",
         "state":"ရန်ကုန်",
         "township":"ဒဂုံဆိပ်ကမ်း",
         "doctors":"",
         "phone":"09420098152",
         "address":"Building 26, Room 001 3St, B-Block, Yuzana Garden City, Dagon Seik Kan Tsp, Yangon",
         "remark":"Thursday to Tuesday (9AM - 5PM)\nWednesday, Closed",
         "rating":""
      },
      {
         "name":"Forever Veterinary Clinic (ထာဝရဆေးခန်း)",
         "image":"",
         "latitude":"16.843630796258196",
         "longitude":"96.11694223688097",
         "state":"ရန်ကုန်",
         "township":"လှိုင်",
         "doctors":"Dr.Saw Thet Htun, Dr.Myo Khaing",
         "phone":"095402360, 0931074452, 09794794544",
         "address":"အမှတ် B-2, R-5, ဘုရင့်နောင်လမ်းမ၊ ဘူတာရုံမှတ်တိုင်နား၊ လှိုင်မြို့နယ်။",
         "remark":"Mon to Fri 9am-12pm, 2pm-4pm, 6pm-9pm\nSat 9am-12pm, 2pm-4pm\nSun/Public Holidays 9am-1pm\n\nဆေးခန်းပိတ်ချိန်တွင်လည်း ဖုန်းခေါ်ပြီး ဆေးခန်းလာပြနိုင်သည်။ အချိန်ပိုခတော့ ပေးရသည်။ အိမ်သို့ကြွသည်။",
         "rating":""
      },
      {
         "name":"Forever Veterinary Clinic (ထာဝရဆေးခန်း)",
         "image":"",
         "latitude":"16.879892762511496",
         "longitude":"96.1730968121525",
         "state":"ရန်ကုန်",
         "township":"မြောက်ဒဂုံ",
         "doctors":"",
         "phone":"09421011044",
         "address":"Maharmyaing Housing, Yangon",
         "remark":"Mon to Fri 9am-12pm, 2pm-4pm, 6pm-9pm\nSat 9am-12pm, 2pm-4pm\nSun/Public Holidays 9am-1pm\n\nဆေးခန်းပိတ်ချိန်တွင်လည်း ဖုန်းခေါ်ပြီး ဆေးခန်းလာပြနိုင်သည်။ အချိန်ပိုခတော့ ပေးရသည်။ အိမ်သို့ကြွသည်။",
         "rating":""
      },
      {
         "name":"Forever Veterinary Clinic (ထာဝရဆေးခန်း)",
         "image":"",
         "latitude":"16.890855620516653",
         "longitude":"96.15289684511446",
         "state":"ရန်ကုန်",
         "township":"",
         "doctors":"",
         "phone":"095085253",
         "address":"Thudamar Road, Yangon",
         "remark":"Mon to Sunday (9:30AM - 7PM)\n\nဆေးခန်းပိတ်ချိန်တွင်လည်း ဖုန်းခေါ်ပြီး ဆေးခန်းလာပြနိုင်သည်။ အချိန်ပိုခတော့ ပေးရသည်။ အိမ်သို့ကြွသည်။",
         "rating":""
      },
      {
         "name":"Forever Veterinary Clinic (ထာဝရဆေးခန်း)",
         "image":"",
         "latitude":"16.80635588189359",
         "longitude":"96.2171808564839",
         "state":"ရန်ကုန်",
         "township":"",
         "doctors":"",
         "phone":"",
         "address":"Shukhinthar Rd, ရန်ကုန်",
         "remark":"Mon to Fri 9am-12pm, 2pm-4pm, 6pm-9pm\nSat 9am-12pm, 2pm-4pm\nSun/Public Holidays 9am-1pm\n\nဆေးခန်းပိတ်ချိန်တွင်လည်း ဖုန်းခေါ်ပြီး ဆေးခန်းလာပြနိုင်သည်။ အချိန်ပိုခတော့ ပေးရသည်။ အိမ်သို့ကြွသည်။",
         "rating":""
      },
      {
         "name":"ကောင်းဆေးခန်း",
         "image":"",
         "latitude":"",
         "longitude":"",
         "state":"ရန်ကုန်",
         "township":"လှိုင်သာယာ",
         "doctors":"Dr.U Than Win",
         "phone":"095004866",
         "address":"နဝဒေးအိမ်ယာ Shop house, လှိုင်သာယာ (ကျန်စစ်သားအိမ်ယာနဲ့ နီးတဲ့အခြမ်း၊ နယူးအာရှ ဖုန်းဆိုင်ဘေးလမ်းကဝင်၊ ဘယ်ဘက်ချိုး၊ အနီးရှိကုန်စုံဆိုင်ကို မေးကြည့်နိုင်။ ၅ လမ်းထိပ်ဘက်မှာလဲရှိ၊ ပီမိုးနင်းလမ်းအနီးတွင် မေးကြည့်နိုင်။",
         "remark":"",
         "rating":""
      },
      {
         "name":"အောင်ဆေးခန်း",
         "image":"",
         "latitude":"",
         "longitude":"",
         "state":"ရန်ကုန်",
         "township":"",
         "doctors":"Dr.Kyaw Soe (BVS) Veterinary Surgeon (Tasama-0126)",
         "phone":"095117870",
         "address":"အမှတ် ၃၃၊ မိုးကောင်းလမ်း (ဘေက်ထော်ဘူတာရုံလမ်းထောင့်) ဘောက်ထော်၊ မာကျူရီလက်ဖက်ရည်ဆိုင်နှင့် သပြေရိပ်လက်ဖက်ရည်ဆိုင်ကြား၊ မှတ်တမ်းရုံးနှင့် မျက်နှာချင်းဆိုင်)",
         "remark":"မနက် 8:30-11:00, ညနေ 4:00-7:30\n(အင်္ဂါနေ့မနက်ပိုင်းပိတ်)",
         "rating":""
      },
      {
         "name":"စေတနာဆေးခန်း",
         "image":"",
         "latitude":"",
         "longitude":"",
         "state":"ရန်ကုန်",
         "township":"တောင်ဥက္ကလာပ",
         "doctors":"Dr.Lae Lae Khing (B.V.S) (Tasama-3050)",
         "phone":"01560464",
         "address":"သုမင်္ဂလာလမ်း၊ ဇာလီတောင်အိမ်ယာ၊ တောင်ဥက္ကလာပမြို့နယ်။",
         "remark":"",
         "rating":""
      },
      {
         "name":"Royal Asia Clinic",
         "image":"",
         "latitude":"16.86649051930304",
         "longitude":"96.17878341565884",
         "state":"ရန်ကုန်",
         "township":"တောင်ဥက္ကလာပ",
         "doctors":"Dr.Thein Tun Aung",
         "phone":"018500715, 09421066887",
         "address":"အမှတ် ၂၉၆(က)၊ သံသုမာလမ်း၊ တောင်ဥက္ကလာပမြို့နယ်။",
         "remark":"8:00am to 2:00pm",
         "rating":""
      },
      {
         "name":"ကြာညိုပန်းဆေးခန်း",
         "image":"",
         "latitude":"",
         "longitude":"",
         "state":"ရန်ကုန်",
         "township":"တောင်ဥက္ကလာပ",
         "doctors":"Dr.Daw Sandar Aung, Dr.Su Lae Ye Htun",
         "phone":"01572863",
         "address":"တောင်ဥက္ကလာစာတိုက်အနီး (တောင်ဥက္ကလာ ရဲစခန်းရှေ့)",
         "remark":"အိမ်သို့မကြွနိုင်ပါ။",
         "rating":""
      },
      {
         "name":"ဝေဇယန္တာဆေးခန်း",
         "image":"",
         "latitude":"",
         "longitude":"",
         "state":"ရန်ကုန်",
         "township":"တောင်ဥက္ကလာပ",
         "doctors":"Dr.Kyaw Lwin",
         "phone":"",
         "address":"ပါရမီလမ်းနှင့် ဝေဇယန္တာလမ်းထောင့်အနီး၊ ဝေဇယန္တာလမ်းမကြီးပေါ်၊ တောင်ဥက္ကလာပမြို့နယ်။",
         "remark":"",
         "rating":""
      },
      {
         "name":"မြိတ္တဆေးခန်း",
         "image":"",
         "latitude":"",
         "longitude":"",
         "state":"ရန်ကုန်",
         "township":"",
         "doctors":"",
         "phone":"09450007088, 095078360",
         "address":"အမှတ် ၁၄၂၊ အခန်း ၃၊ သံသုမာလမ်းမကြီး၊ သုဝဏ္ဏ(သုဝဏ္ဏဈေးအနီး)",
         "remark":"",
         "rating":""
      },
      {
         "name":"Myat Clinic",
         "image":"",
         "latitude":"",
         "longitude":"",
         "state":"ရန်ကုန်",
         "township":"",
         "doctors":"",
         "phone":"0973138523",
         "address":"မြိုင်ဟေဝန်အိမ်ယာ၊ Junction 8 နောက်ကျော မိန်းလမ်းမကြီးပေါ် ပေါက်စေတီရှေ့",
         "remark":"အိမ်ကြွပါသည်။",
         "rating":""
      },
      {
         "name":"ဇော်ဆေးခန်း",
         "image":"",
         "latitude":"",
         "longitude":"",
         "state":"ရန်ကုန်",
         "township":"တာမွေ",
         "doctors":"ဒေါက်တာကျော်နိုင်ဦး (B.V.S Dip in French) (Tasama-1037), ဒေါက်တာနီလာကျော် (B.V.S) (Tasama-1053)",
         "phone":"095015586",
         "address":"အမှတ် ၃၅၅၊ ဗညားဒလလမ်း၊ ကျောက်မြောင်း၊ တာမွေ။",
         "remark":"",
         "rating":""
      },
      {
         "name":"ဒေါက်တာတင်တင်ခိုင်",
         "image":"",
         "latitude":"",
         "longitude":"",
         "state":"ရန်ကုန်",
         "township":"ကမာရွတ်",
         "doctors":"ဒေါက်တာတင်တင်ခိုင်",
         "phone":"095133712",
         "address":"လှည်းတန်း၊ ပေ ၅၀ လမ်း။",
         "remark":"အိမ်သို့ကြွသည်။",
         "rating":""
      },
      {
         "name":"မေလိခဆေးခန်း",
         "image":"",
         "latitude":"",
         "longitude":"",
         "state":"ရန်ကုန်",
         "township":"",
         "doctors":"ဒေါက်တာတင်မျိုးနိုင်",
         "phone":"01650083",
         "address":"ဝါယာလက် ၁ လမ်း၊ ကမ္ဘာအေးဘုရားအနီး၊ Myanmar VES ရှေ့။",
         "remark":"မနက် ၉း၀၀ - ည ၈း၀၀",
         "rating":""
      },
      {
         "name":"တော်ဝင်ဆေးခန်း",
         "image":"",
         "latitude":"",
         "longitude":"",
         "state":"ရန်ကုန်",
         "township":"ရန်ကင်း",
         "doctors":"ဒေါက်တာမြတ်ဦး",
         "phone":"098616037",
         "address":"ရွှေဂုံတိုင်အနီး၊ ခြောက်ထပ်ကြီးမှတ်တိုင်နှင့် ဗန်ဒါပင်မှတ်တိုင်ကြား",
         "remark":"တနင်္လာ - သောကြာ (မနက် ၈း၀၀ - ၁၁း၀၀၊ ညနေ ၄း၀၀ - ၈း၀၀)\nတနင်္ဂနွေ (ညနေ ၄း၀၀ - ၈း၀၀)",
         "rating":""
      },
      {
         "name":"မေ ဆေးခန်း",
         "image":"",
         "latitude":"",
         "longitude":"",
         "state":"ရန်ကုန်",
         "township":"လှိုင်",
         "doctors":"ဒေါက်တာစိုးမင်းလင်း",
         "phone":"0973133112",
         "address":"တိုက် ၁၇, အခန်း ၂, မာတလိလမ်း၊ လှိုင်မြင့်မိုရ်အိမ်ယာ၊ ကံလမ်း၊ လှိုင်မြို့နယ်။",
         "remark":"အိမ်သို့ကြွသည်။",
         "rating":""
      },
      {
         "name":"ဒေါက်တာကျော်ဇေယျ",
         "image":"",
         "latitude":"",
         "longitude":"",
         "state":"ရန်ကုန်",
         "township":"မြောက်ဥက္ကလာပ",
         "doctors":"ဒေါက်တာကျော်ဇေယျ",
         "phone":"095192568",
         "address":"နီလာ ၁ လမ်းထောင့်၊ ခေမာသီ၊ မြောက်ဥက္ကလာပမြို့နယ်။",
         "remark":"မနက်ပိုင်းသာ ထိုင်သည်။",
         "rating":""
      },
      {
         "name":"ထွန်းဆေးခန်း",
         "image":"",
         "latitude":"",
         "longitude":"",
         "state":"ရန်ကုန်",
         "township":"မြောက်ဥက္ကလာပ",
         "doctors":"ဒေါက်တာဉာဏ်ထွန်း",
         "phone":"",
         "address":"မေဓါဝီမှတ်တိုင်အနီး၊ မေဓါဝီလမ်းဆုံ၊ မြောက်ဥက္ကလာပမြို့နယ်။",
         "remark":"",
         "rating":""
      },
      {
         "name":"ဂါးဖီးလ်ဆေးခန်း",
         "image":"",
         "latitude":"",
         "longitude":"",
         "state":"ရန်ကုန်",
         "township":"မြောက်ဥက္ကလာပမ",
         "doctors":"",
         "phone":"",
         "address":"ဧရာလမ်း၊ မြောက်ဥက္ကလာပမြို့နယ်",
         "remark":"",
         "rating":""
      },
      {
         "name":"ခရမ်းပြာဆေးခန်း",
         "image":"",
         "latitude":"",
         "longitude":"",
         "state":"ရန်ကုန်",
         "township":"မြောက်ဒဂုံ",
         "doctors":"ဒေါက်တာသင်းသင်းမင်း",
         "phone":"0973073167",
         "address":"ပင်လုံလမ်း၊ မြောက်ဒဂုံ",
         "remark":"အိမ်သို့ကြွသည်။",
         "rating":""
      },
      {
         "name":"ကောင်းကျော်ကြား",
         "image":"",
         "latitude":"",
         "longitude":"",
         "state":"ရန်ကုန်",
         "township":"ကြည့်မြင်တိုင်",
         "doctors":"ဒေါက်တာချိုလွင်",
         "phone":"01510545",
         "address":"လိပ်စာအတိအကျမသိ၊ ကျောင်းကြီးလမ်း၊ ကြည့်မြင်တိုင်ညဈေးအနီး",
         "remark":"အိမ်ကိုလည်း လိုက်ကြည့်ပေးပါသည်။",
         "rating":""
      },
      {
         "name":"ပိုင်ဖြိုးဆေးခန်း",
         "image":"",
         "latitude":"",
         "longitude":"",
         "state":"ရန်ကုန်",
         "township":"",
         "doctors":"ဒေါက်တာမြင့်ဝင်း",
         "phone":"095186391",
         "address":"မြိုင်ဟေဝန်အိမ်ယာ၊ ရှစ်မိုင်",
         "remark":"",
         "rating":""
      },
      {
         "name":"ဒေါက်တာအေးဝင်း",
         "image":"",
         "latitude":"",
         "longitude":"",
         "state":"ရန်ကုန်",
         "township":"",
         "doctors":"ဒေါက်တာအေးဝင်း",
         "phone":"095133208",
         "address":"ရေကျော်ရွှေဘုန်းပွင့်ဘုရားအနီး၊ သဇင်လမ်း။",
         "remark":"",
         "rating":""
      },
      {
         "name":"ဒေါက်တာသန့်စင်",
         "image":"",
         "latitude":"",
         "longitude":"",
         "state":"ရန်ကုန်",
         "township":"",
         "doctors":"ဒေါက်တာသန့်စင်",
         "phone":"095196106",
         "address":"၈၇ လမ်း၊ ဒေါ်သိန်းတင်ဘက်မှ ဝင်လျှင် ပိုနီး။",
         "remark":"အိမ်သို့ကြွသည်။\nမနက် ၉ နာရီ မှ ၁၁ နာရီထိ - ညနေ ၅ နာရီ မှ ၈ နာရီအထိ\nတနင်္ဂနွေပိတ်သည်။",
         "rating":""
      },
      {
         "name":"ဒေါက်တာသန်းထိုက်",
         "image":"",
         "latitude":"",
         "longitude":"",
         "state":"ရန်ကုန်",
         "township":"သာကေတ",
         "doctors":"ဒေါက်တာသန်းထိုက်",
         "phone":"095106551",
         "address":"သာကေတ ရုပ်ရှင်ရုံအနီး",
         "remark":"အိမ်သို့ကြွသည်။",
         "rating":""
      },
      {
         "name":"ဒေါက်တာမင်းထွဋ်",
         "image":"",
         "latitude":"",
         "longitude":"",
         "state":"ရန်ကုန်",
         "township":"",
         "doctors":"ဒေါက်တာမင်းထွဋ်",
         "phone":"0943134702",
         "address":"လိပ်စာမသိ",
         "remark":"အိမ်သို့ကြွသည်။",
         "rating":""
      },
      {
         "name":"မေဇွန်ဆေးခန်း",
         "image":"",
         "latitude":"",
         "longitude":"",
         "state":"မန္တလေး",
         "township":"",
         "doctors":"",
         "phone":"095169260",
         "address":"လမ်း ၈၀ နဲ့ ၈၁ လမ်းကြား။ ၃၂ လမ်း။ ဓါတ်ဆီဆိုင်ရှိတဲ့လမ်းပါ။",
         "remark":"အိမ်ကြွပါသည်။",
         "rating":""
      },
      {
         "name":"DC Veterinary Clinic",
         "image":"",
         "latitude":"",
         "longitude":"",
         "state":"ရန်ကုန်",
         "township":"သင်္ဃန်းကျွန်း",
         "doctors":"",
         "phone":"0925002160",
         "address":"အမှတ် (၁၅၆)၊ စံပြ (၄)လမ်း၊ စံပြရပ်ကွက်၊ သင်္ဃန်းကျွန်းမြို့နယ်၊ ရန်ကုန်။",
         "remark":"ဆေးခန်းဖွင့်ချိန် - နေ့စဉ် (၁၂:၃၀)နာရီ မှ (၅:၃၀)အထိ",
         "rating":""
      },
      {
         "name":"MIN Veterinary Clinic",
         "image":"",
         "latitude":"",
         "longitude":"",
         "state":"ရန်ကုန်",
         "township":"စမ်းချောင်း",
         "doctors":"",
         "phone":"095014606",
         "address":"အမှတ် (၇)၊ မြင့်မိုရ်လမ်း၊ (သဲပုံစေတီအနီး)၊ စမ်းချောင်းမြို့နယ်၊ ရန်ကုန်။",
         "remark":"ဆေးခန်းဖွင့်ချိန် - နေ့စဉ် မနက် (၈:၀၀ - ၁၂:၀၀ နာရီ) နဲ့ ညနေ (၅:၀၀ - ၉:၀၀ နာရီ) ",
         "rating":""
      },
      {
         "name":"Aung Veterinary Clinic",
         "image":"",
         "latitude":"",
         "longitude":"",
         "state":"ရန်ကုန်",
         "township":"မင်္ဂလာဒုံ",
         "doctors":"ဒေါက်တာအောင်ကျော် (B.V.Sc)Yzn",
         "phone":"09972406618, 09420143227",
         "address":"No-143, Mingalardon Garden City (Zaykabar Golf Stree)",
         "remark":"",
         "rating":""
      },
      {
         "name":"အောင် တိရစ္ဆာန်ဆေးကုခန်း",
         "image":"",
         "latitude":"",
         "longitude":"",
         "state":"ရန်ကုန်",
         "township":"တောင်ဥက္ကလာပ",
         "doctors":"ဒေါက်တာစောနိုင် (D.A.H, B.V.S) YGN",
         "phone":"09250278560, 09450456453, 0949308473, 0973237035",
         "address":"အမှတ်(၄၅၆)၊ သုတလမ်းနှင့် သဒ္ဒါလမ်းထောင့်၊ (၄)ရပ်ကွက်၊ တောင်ဥက္ကလာပမြို့နယ်၊ ရန်ကုန်",
         "remark":"",
         "rating":""
      },
      {
         "name":"Dr.မြတ်ဦး",
         "image":"",
         "latitude":"",
         "longitude":"",
         "state":"ရန်ကုန်",
         "township":"ဗဟန်း",
         "doctors":"",
         "phone":"098616037",
         "address":"No.287, Shwe Gon Daing Road, Bahan, Yangon",
         "remark":"",
         "rating":""
      },
      {
         "name":"ပြည် တိရစ္ဆာန်ဆေးကုခန်း",
         "image":"",
         "latitude":"",
         "longitude":"",
         "state":"ရန်ကုန်",
         "township":"ကမာရွတ်",
         "doctors":"ဒေါက်တာအေးအေးခိုင် B.V.S(YGN), D.FT",
         "phone":"01527526, 095262313, 0936059888",
         "address":"အမှတ် (၄၇၁)၊ ပြည်လမ်း၊ (Novotel Hotel အနီး)၊ ကမာရွတ်မြို့နယ်၊ ရန်ကုန်။",
         "remark":"",
         "rating":""
      },
      {
         "name":"May Li Kha",
         "image":"",
         "latitude":"",
         "longitude":"",
         "state":"ရန်ကုန်",
         "township":"မရမ်းကုန်း",
         "doctors":"",
         "phone":"09420070288",
         "address":"ဝါယာလတ်(၁)လမ်း၊ (ကျောက်မျက်ရှေ့) ကမ္ဘာအေးဘုရားလမ်း၊ မရမ်းကုန်းမြို့နယ်၊ ရန်ကုန်။",
         "remark":"ဆေးခန်းဖွင့်ချိန် နံနက် ၉:၀၀ နာရီ မှ ညနေ ၇:၀၀ နာရီထိ၊ စနေ/တနင်္ဂနွေ နေ့လည် ၂:၀၀ နာရီ မှ ည ၇:၀၀ နာရီထိ",
         "rating":""
      },
      {
         "name":"Diamond Apex Pet Care Center",
         "image":"",
         "latitude":"",
         "longitude":"",
         "state":"ရန်ကုန်",
         "township":"ရန်ကင်း",
         "doctors":"Dr.Aye Kyaw, Dr.Soe Minn, Dr.Kyi Lwin, Dr.Wai Wai Tun, Dr.Yin Yin Myint, Dr.Khin Khin Aye, Dr.Nu Nu Than, Dr.Aye Aye Thinn, Dr.Hnin Pwint Hlaing",
         "phone":"09262190500",
         "address":"အမှတ် ၃၇, အောင်ဇေယျလမ်း၊ ကျောက်ကုန်း၊ ရန်ကင်းမြို့နယ်၊ ရန်ကုန်။",
         "remark":"ဆေးခန်းဖွင့်ချိန် နံနက် ၉:၀၀ မှ ညနေ ၇:၀၀ နာရီ",
         "rating":""
      },
      {
         "name":"ကရုဏာ",
         "image":"",
         "latitude":"",
         "longitude":"",
         "state":"ရန်ကုန်",
         "township":"တာမွေ",
         "doctors":"",
         "phone":"0973054226",
         "address":"တိုက်(၁၄)၊ ပုညဝတ္တနလမ်း၊ (အသောကလမ်းနှင့် ကျောကပ်)၊ တာမွေမြို့နယ်၊ ရန်ကုန်။",
         "remark":"ဆေးခန်းဖွင့်ချိန် ညနေ (၅:၀၀ - ၉:၀၀)နာရီ၊ ဆေခန်းချိန်ပြင်ပ (Open Daily)",
         "rating":""
      },
      {
         "name":"LAMIN",
         "image":"",
         "latitude":"",
         "longitude":"",
         "state":"ရန်ကုန်",
         "township":"ရန်ကင်း",
         "doctors":"Dr.Aye Min - B.V.Sc(Yzn)",
         "phone":"09773122125, 0978055422",
         "address":"No. 150, Thitsar Street, Ward 12, Yankin Township, Yangon",
         "remark":"Mon to Sat (9am - 1pm), (4pm - 8pm) & Sun & Public Holidays (9am - 1pm)",
         "rating":""
      },
      {
         "name":"မေ",
         "image":"",
         "latitude":"",
         "longitude":"",
         "state":"ရန်ကုန်",
         "township":"လှိုင်",
         "doctors":"",
         "phone":"0973133112, 09778825744",
         "address":"တိုက်-၁၇၊ အခန်း-၂၊ မာတလိလမ်း၊ လှိုင်မြင့်မိုရ်အိမ်ရာ၊ ကန်လမ်း၊ လှိုင်မြို့နယ်၊ ရန်ကုန်။",
         "remark":"",
         "rating":""
      },
      {
         "name":"Aung Thu Kha",
         "image":"",
         "latitude":"",
         "longitude":"",
         "state":"ရန်ကုန်",
         "township":"ရန်ကင်း",
         "doctors":"Dr.Htun Lwin Oo (B.V.S), Dr.Su Myat Noe (B.V.Sc)",
         "phone":"01700112, 0931552908, 0973007804",
         "address":"NO.33-C1, MOe Kaung Road, Yanking Tsp., Yangon.",
         "remark":"",
         "rating":""
      },
      {
         "name":"ငွေမှန်အိမ်",
         "image":"",
         "latitude":"",
         "longitude":"",
         "state":"ရန်ကုန်",
         "township":"တောင်ဥက္ကလာပ",
         "doctors":"",
         "phone":"09794117875, 0949590645",
         "address":"အမှတ်(၁၃/၁)၊ ဇင်ယောက်လမ်း၊ ၁၄/၂ ရပ်ကွက်၊ တောင်ဥက္ကလာပမြို့နယ်၊ ရန်ကုန်။",
         "remark":"",
         "rating":""
      },
      {
         "name":"Aye Vet Clinic",
         "image":"",
         "latitude":"",
         "longitude":"",
         "state":"ရန်ကုန်",
         "township":"စမ်းချောင်း",
         "doctors":"Dr.Khin Saw Thar",
         "phone":"01505691, 095129858, 0997690210",
         "address":"NO.76, Min Street, Sanchaung, Yangon, Myanmar.",
         "remark":"Opening Hour 7am-10am & 4pm-9pm",
         "rating":""
      },
      {
         "name":"ပါရမီ တိရစ္ဆာန်ဆေးကုခန်းနှင့် ရောဂါရှာဖွေရေးစင်တာ",
         "image":"",
         "latitude":"",
         "longitude":"",
         "state":"ရန်ကုန်",
         "township":"လှိုင်",
         "doctors":"",
         "phone":"09404070129, 09968939120",
         "address":"အမှတ်(၁၁၅)၊ ပါရမီလမ်းနှင့် ဗဟိုလမ်းထောင့်၊ လှိုင်မြို့နယ်၊ ရန်ကုန်။",
         "remark":"နေ့စဉ် နံနက်(၈)နာရီ မှ ည(၈)နာရီအထိ (ပိတ်ရက်မရှိ)",
         "rating":""
      },
      {
         "name":"မြိတ္တ",
         "image":"",
         "latitude":"",
         "longitude":"",
         "state":"ရန်ကုန်",
         "township":"သင်္ဃန်းကျွန်းမြို့နယ်",
         "doctors":"ဒေါက်တာဘမြင့် (B.V.S), ဒေါက်တာသီတာအေး (B.V.S., Dip in A.H)",
         "phone":"09450007088, 095078360",
         "address":"အမှတ်(၁၄၂)၊ အခန်း(၃)၊ သံသုမာလမ်းမကြီး၊ သုဝဏ္ဏ၊ (သုဝဏ္ဏဈေးနှင့် မီးဒုံးမှတ်တိုင်ကြား)၊ သင်္ဃန်းကျွန်းမြို့နယ်၊ ရန်ကုန်။",
         "remark":"နံနက် (၉:၃၀)နာရီ မှ (၂:၀၀)နာရီ၊ ညနေ (၄:၃၀)နာရီ မှ (၈:၃၀)နာရီ",
         "rating":""
      },
      {
         "name":"Happy",
         "image":"",
         "latitude":"",
         "longitude":"",
         "state":"ရန်ကုန်",
         "township":"သာကေတ",
         "doctors":"Dr.Su Mon Than (B.V.Sc)",
         "phone":"09446092463, 09764006401",
         "address":"နဝရတ်(၁၀)လမ်းထိပ်၊ နဝရတ်လမ်းမကြီးပေါ်၊ (စ)ရပ်ကွက်၊ ကမာကြည်တံတားအဆင်း၊ သာကေတ၊ ရန်ကုန်။",
         "remark":"နံနက် (၁၀:၀၀) မှ (၁၂:၀၀) ၊ နေ့ခင်း (၂:၀၀) မှ (၈:၀၀)။ အပါတ်စဉ် စနေနေ့တိုင်း ပိတ်သည်",
         "rating":""
      },
      {
         "name":"Life",
         "image":"",
         "latitude":"",
         "longitude":"",
         "state":"ရန်ကုန်",
         "township":"မြောက်ဥက္ကလာပ",
         "doctors":"",
         "phone":"09420097129, 09694461500",
         "address":"အမှတ်(၅၄၁) သုဓမ္မာလမ်းမကြီး၊ (ဇ)ရပ်ကွက်၊ မြောက်ဥက္ကလာပမြို့နယ်၊ ရန်ကုန်",
         "remark":"အိမ်အရောက် ဆေးကုသဝန်ဆောင်မှု ရှိပါသည်",
         "rating":""
      },
      {
         "name":"ဝေါမေတ္တာ တိရစ္ဆာန်ဆေးကု၊ ခွဲစိတ်ဆေးခန်း",
         "image":"",
         "latitude":"",
         "longitude":"",
         "state":"ရန်ကုန်",
         "township":"အင်းစိန်မြို့နယ်",
         "doctors":"Dr.Saw Wallace (B.V.Sc)Ygn",
         "phone":"01646061, 09783553369",
         "address":"No.578, Neik Bain Da St, LanThint, Nant Thar Gone, Insein, Yangon",
         "remark":"9:00 - 12:00 am, 1:00 - 6:00pm (Sunday Close)",
         "rating":""
      }
   ]
}
