[
   {
      "name":"Hamster Blog",
      "image":"",
      "support":"Fish, Bird, Rabbit, Hamster, Cat, Dog",
      "latitude":"16.91026366216617",
      "longitude":"96.15974775384093",
      "state":"ရန်ကုန်",
      "township":"မြောက်ဥက္ကလာပ",
      "phone":"09443022245, 09694416991, 09757453062",
      "address":"ဆ/၁၂၊ ခေမာသီ ၁ လမ်း၊ ဈ-ဈေးအနီး၊ မြောက်ဥက္ကလာပမြို့နယ်။",
      "remark":"",
      "rating":""
   },
   {
      "name":"Bumblebee",
      "image":"https://lh5.googleusercontent.com/p/AF1QipME481Np_vITfnt0wvNFTOqoqq-mmwGFGE7td5-=w408-h306-k-no",
      "support":"Fish, Bird, Rabbit, Hamster, Cat, Dog",
      "latitude":"16.903827358012176",
      "longitude":"96.16138815723363",
      "state":"ရန်ကုန်",
      "township":"မြောက်ဥက္ကလာပ",
      "phone":"09423438877",
      "address":"မေဓာဝီလမ်းမကြီး၊ မြောက်ဥက္ကလာပမြို့နယ်၊ ရန်ကုန်။",
      "remark":"",
      "rating":""
   },
   {
      "name":"De De Pet Shop",
      "image":"",
      "support":"Rabbit, Hamster",
      "latitude":"16.8114768758437",
      "longitude":"96.1271396970321",
      "state":"ရန်ကုန်",
      "township":"စမ်းချောင်း",
      "phone":"09253385045",
      "address":"အမှတ် ၁၄ C, မြေညီ ခေါင်းရင်း၊ ဝေဠုဝန်လမ်းကျယ်၊ ဗဟိုလမ်းဘက်ခြမ်း၊ စမ်းချောင်းမြို့နယ်၊ ရန်ကုန်။",
      "facebook":"https://wwww.facebook.com/dedepetshop.mm",
      "remark":"",
      "rating":""
   },
   {
      "name":"Pet Zone",
      "image":"",
      "support":"Rabbit, Cat, Dog",
      "latitude":"16.803688606551688",
      "longitude":"96.13019406677518",
      "state":"ရန်ကုန်",
      "township":"စမ်းချောင်း",
      "phone":"09409000138",
      "address":"No 120 (A) ဗားကရာလမ်းနှင့် ဗဟိုလမ်းထောင့်၊ ရန်ကုန်။",
      "facebook":"https://wwww.facebook.com/PetZone.PZ",
      "remark":"",
      "rating":""
   },
   {
      "name":"Pets & Pets` Accessories Shop",
      "image":"",
      "support":"Rabbit",
      "latitude":"16.9396642",
      "longitude":"96.2346547",
      "state":"ရန်ကုန်",
      "township":"ဒဂုံမြို့သစ်အရှေ့ပိုင်း",
      "phone":"09974180326, 09970706031, 09691045939",
      "address":"No.375,U Shwe Maung Street,156th ward,East Dagon Township,Yangon.",
      "facebook":"",
      "remark":"",
      "rating":""
   },
   {
      "name":"BunBun's House",
      "image":"",
      "support":"Rabbit",
      "latitude":"16.840696525433053",
      "longitude":"96.16559082401838",
      "state":"ရန်ကုန်",
      "township":"ရန်ကင်း",
      "phone":"09773038380",
      "address":"No.164, kanbe station road, Yankin township",
      "facebook":"",
      "remark":"",
      "rating":""
   },
   {
      "name":"Little Bunny Pet Supply",
      "image":"",
      "support":"Rabbit",
      "latitude":"16.83514176183005",
      "longitude":"96.16991019703245",
      "state":"ရန်ကုန်",
      "township":"ရန်ကင်း",
      "phone":"09976923665,09421021423",
      "address":"No 272C, ဓမ္မာရုံလမ်းသွယ်၊ ၁၃ရပ်ကွက်၊ ရန်ကင်း",
      "facebook":"https://www.facebook.com/littlebunnymm",
      "remark":"",
      "rating":""
   },
   {
      "name":"Ye Htet Aung",
      "image":"",
      "support":"Rabbit",
      "latitude":"16.816846048945145",
      "longitude":"96.1227252344503",
      "state":"ရန်ကုန်",
      "township":"ကြည့်မြင်တိုင်",
      "phone":"095064151",
      "address":"အမှတ် ၆၃ နိဗ္ဗာန်လမ်း၊ ကြည့်မြင်တိုင်၊ ရန်ကုန်",
      "facebook":"",
      "remark":"",
      "rating":""
   },
   {
      "name":"Bunny's shop by Poppy",
      "image":"",
      "support":"Rabbit",
      "latitude":"16.776551221822405",
      "longitude":"96.1426607879129",
      "state":"ရန်ကုန်",
      "township":"လမ်းမတော်",
      "phone":"09971595009",
      "address":"No 36 9th Lanmadaw ",
      "facebook":"",
      "remark":"",
      "rating":""
   },
   {
      "name":"Khin thiri",
      "image":"",
      "support":"Rabbit",
      "latitude":"16.80831124717032",
      "longitude":"96.1238976302924",
      "state":"ရန်ကုန်",
      "township":"ကြည့်မြင်တိုင်",
      "phone":"09757535714",
      "address":"ကြည့်မြင့်တိုင်,ပိတောက်ပင်လမ်း",
      "facebook":"",
      "remark":"",
      "rating":""
   }
]
